{
  "type": "FeatureCollection",
  "features": [
    {
      "type": "Feature",
      "properties": {
        "siteID": "BARR"
      },
      "geometry": {
        "type": "Point",
        "coordinates": [
          -156.618856,
          71.282347
        ]
      }
    },
    {
      "type": "Feature",
      "properties": {
        "siteID": "TOOL"
      },
      "geometry": {
        "type": "Point",
        "coordinates": [
          -149.369689,
          68.660853
        ]
      }
    },
    {
      "type": "Feature",
      "properties": {
        "siteID": "BONA"
      },
      "geometry": {
        "type": "Point",
        "coordinates": [
          -147.502961,
          65.153992
        ]
      }
    },
    {
      "type": "Feature",
      "properties": {
        "siteID": "DEJU"
      },
      "geometry": {
        "type": "Point",
        "coordinates": [
          -145.750606,
          63.881278
        ]
      }
    },
    {
      "type": "Feature",
      "properties": {
        "siteID": "HEAL"
      },
      "geometry": {
        "type": "Point",
        "coordinates": [
          -149.213615,
          63.875538
        ]
      }
    }
  ]
}